{
  "cities": [
    {
      "cityName": "Olevsk",
      "countryName": "Ukraine",
      "countryCode": "UA",
      "emoji": "ðŸ‡ºðŸ‡¦",
      "date": "2024-02-06T14:17:12.033Z",
      "notes": "adsc",
      "position": {
        "lat": 50.99315558328563,
        "lng": 27.46855541570928
      },
      "id": 98443218
    },
    {
      "cityName": "Market Harborough",
      "countryName": "United Kingdom of Great Britain and Northern Ireland (the)",
      "countryCode": "GB",
      "emoji": "ðŸ‡¬ðŸ‡§",
      "date": "2024-02-06T17:40:46.064Z",
      "notes": "",
      "position": {
        "lat": 52.64596881492179,
        "lng": -0.83525996245156
      },
      "id": 98443219
    },
    {
      "cityName": "Murzuk",
      "countryName": "Libya",
      "countryCode": "LY",
      "emoji": "ðŸ‡±ðŸ‡¾",
      "date": "2024-02-06T17:40:52.118Z",
      "notes": "",
      "position": {
        "lat": 25.349560261569216,
        "lng": 17.225190770348814
      },
      "id": 98443220
    },
    {
      "cityName": "Krasnaya Polyana",
      "countryName": "Russian Federation (the)",
      "countryCode": "RU",
      "emoji": "ðŸ‡·ðŸ‡º",
      "date": "2024-02-06T17:40:55.297Z",
      "notes": "",
      "position": {
        "lat": 46.10687746437058,
        "lng": 41.61603000847868
      },
      "id": 98443221
    },
    {
      "cityName": "Bayganin",
      "countryName": "Kazakhstan",
      "countryCode": "KZ",
      "emoji": "ðŸ‡°ðŸ‡¿",
      "date": "2024-02-06T17:40:58.557Z",
      "notes": "",
      "position": {
        "lat": 47.76580062280127,
        "lng": 56.42627483042638
      },
      "id": 98443222
    },
    {
      "cityName": "Motala",
      "countryName": "Sweden",
      "countryCode": "SE",
      "emoji": "ðŸ‡¸ðŸ‡ª",
      "date": "2024-02-06T21:30:35.350Z",
      "notes": "",
      "position": {
        "lat": 58.4262719006988,
        "lng": 15.072966314732733
      },
      "id": 98443224
    }
  ],
  "users": [
    {
      "id": 1,
      "name": "creator",
      "email": "creator@gmail.com",
      "password": "12345",
      "avatar": "https://i.pravatar.cc/100?u=zz",
      "session": true
    },
    {
      "name": "test",
      "email": "test@test.com",
      "password": "asd",
      "avatar": "https://i.pravatar.cc/100",
      "session": false,
      "id": 3
    },
    {
      "name": "Anton",
      "email": "test@test.comasdc",
      "password": "asdc",
      "avatar": "https://i.pravatar.cc/100",
      "session": false,
      "id": 4
    },
    {
      "name": "asdcasdc",
      "email": "test@test.comasdc",
      "password": "123",
      "avatar": "https://i.pravatar.cc/100",
      "session": false,
      "id": 5
    },
    {
      "name": "Anton",
      "email": "test@test.comasdc",
      "password": "123",
      "avatar": "https://i.pravatar.cc/100",
      "session": false,
      "id": 6
    }
  ]
}